{
"type": "FeatureCollection",
                                                                                
"features": [
{ "type": "Feature", "properties": { "OBJECTID": 1, "ID": "10416861", "SECCLASS": "UNCLASSIFIED", "NAME": "LAFAYETTE NURSING AND REHAB CENTER", "TELEPHONE": "770-461-2928", "ADDRESS": "110 BRANDYWINE BLVD", "ADDRESS2": " ", "CITY": "FAYETTEVILLE", "STATE": "GA", "ZIP": "30214", "ZIPP4": "1500", "COUNTY": "FAYETTE", "FIPS": "13113", "DIRECTIONS": " ", "EMERGTITLE": " ", "EMERGTEL": " ", "EMERGEXT": " ", "CONTDATE": "-386494464", "CONTHOW": "PHONE", "GEODATE": "1713724416", "GEOHOW": "AUTO", "NAICSCODE": "622310", "NAICSDESCR": "REHABILITATION HOSPITALS (EXCEPT ALCOHOLISM, DRUG ADDICTION)", "GEOLINKID": "114451726", "X": -84.4831016, "Y": 33.4524828, "ST_VENDOR": "NAVTEQ", "ST_VERSION": "2006Q4", "GEOPREC": "BLOCKFACE", "PHONELOC": "YES", "QC_QA": "TGS", "STATE_ID": " " }, "geometry": { "type": "Point", "coordinates": [ -84.481703456193785, 33.452422486836376 ] } }
,
{ "type": "Feature", "properties": { "OBJECTID": 2, "ID": "10416851", "SECCLASS": "UNCLASSIFIED", "NAME": "DEKALB MEDICAL CENTER", "TELEPHONE": "404-501-8000", "ADDRESS": "2801 DEKALB MEDICAL PKWY", "ADDRESS2": " ", "CITY": "LITHONIA", "STATE": "GA", "ZIP": "30058", "ZIPP4": " ", "COUNTY": "DEKALB", "FIPS": "13089", "DIRECTIONS": " ", "EMERGTITLE": " ", "EMERGTEL": " ", "EMERGEXT": " ", "CONTDATE": "-991294464", "CONTHOW": "PHONE", "GEODATE": "1713724416", "GEOHOW": "AUTO", "NAICSCODE": "622110", "NAICSDESCR": "HOSPITALS, GENERAL MEDICAL AND SURGICAL", "GEOLINKID": "127178454", "X": -84.1469677, "Y": 33.7105016, "ST_VENDOR": "NAVTEQ", "ST_VERSION": "2006Q4", "GEOPREC": "BLOCKFACE", "PHONELOC": "YES", "QC_QA": "TGS", "STATE_ID": " " }, "geometry": { "type": "Point", "coordinates": [ -84.149003856098915, 33.709657594318195 ] } }
,
{ "type": "Feature", "properties": { "OBJECTID": 3, "ID": "10416872", "SECCLASS": "UNCLASSIFIED", "NAME": "RIVERWOODS SOUTHERN REGIONAL PSYCHIATRIC CENTER", "TELEPHONE": "770-991-8500", "ADDRESS": "11 UPPER RIVERDALE ROAD SOUTHWEST", "ADDRESS2": " ", "CITY": "RIVERDALE", "STATE": "GA", "ZIP": "30274", "ZIPP4": "2615", "COUNTY": "CLAYTON", "FIPS": "13063", "DIRECTIONS": "LOCATED ON THE N SIDE OF UPPER RIVERDALE ROAD SW 0.17 MILES W IF DON HASTINGS DR.", "EMERGTITLE": " ", "EMERGTEL": " ", "EMERGEXT": " ", "CONTDATE": "2094072832", "CONTHOW": "PHONE", "GEODATE": "-1630842880", "GEOHOW": "MANUAL", "NAICSCODE": "622210", "NAICSDESCR": "HOSPITALS, PSYCHIATRIC (EXCEPT CONVALESCENT)", "GEOLINKID": "22736007", "X": -84.3896839, "Y": 33.5780441, "ST_VENDOR": "NAVTEQ", "ST_VERSION": "2006Q4", "GEOPREC": "BLOCKFACE", "PHONELOC": "YES", "QC_QA": "TGS", "STATE_ID": " " }, "geometry": { "type": "Point", "coordinates": [ -84.390539514623484, 33.578024408161788 ] } }
,
{ "type": "Feature", "properties": { "OBJECTID": 4, "ID": "10416867", "SECCLASS": "UNCLASSIFIED", "NAME": "NORTHSIDE HOSPITAL - CHEROKEE", "TELEPHONE": "770-720-5100", "ADDRESS": "201 HOSPITAL ROAD", "ADDRESS2": " ", "CITY": "CANTON", "STATE": "GA", "ZIP": "30114", "ZIPP4": "2408", "COUNTY": "CHEROKEE", "FIPS": "13057", "DIRECTIONS": "LOCATED W SIDE OF HOSPITAL DR, BETWEEN HOSPITAL RD AND CANTON HWY.", "EMERGTITLE": " ", "EMERGTEL": " ", "EMERGEXT": " ", "CONTDATE": "1748472832", "CONTHOW": "PHONE", "GEODATE": "-1371642880", "GEOHOW": "MANUAL", "NAICSCODE": "622110", "NAICSDESCR": "HOSPITALS, GENERAL MEDICAL AND SURGICAL", "GEOLINKID": "133507028", "X": -84.4903009, "Y": 34.2453892, "ST_VENDOR": "NAVTEQ", "ST_VERSION": "2006Q4", "GEOPREC": "ONENTITY", "PHONELOC": "YES", "QC_QA": "TGS", "STATE_ID": " " }, "geometry": { "type": "Point", "coordinates": [ -84.490300944054383, 34.245389215110464 ] } }
,
{ "type": "Feature", "properties": { "OBJECTID": 5, "ID": "10416835", "SECCLASS": "UNCLASSIFIED", "NAME": "ANCHOR HOSPITAL", "TELEPHONE": "770-991-6044", "ADDRESS": "5454 YORKTOWNE DRIVE", "ADDRESS2": " ", "CITY": "ATLANTA", "STATE": "GA", "ZIP": "30349", "ZIPP4": "5317", "COUNTY": "CLAYTON", "FIPS": "13063", "DIRECTIONS": "LOCATED ON THE SE END OF YORKTOWNE DRIVE 0.26 MILES S OF YORKTOWNE CIR.", "EMERGTITLE": " ", "EMERGTEL": " ", "EMERGEXT": " ", "CONTDATE": "2094072832", "CONTHOW": "PHONE", "GEODATE": "-1630842880", "GEOHOW": "MANUAL", "NAICSCODE": "622110", "NAICSDESCR": "HOSPITALS, GENERAL MEDICAL AND SURGICAL", "GEOLINKID": "22735040", "X": -84.4522937, "Y": 33.606817, "ST_VENDOR": "NAVTEQ", "ST_VERSION": "2006Q4", "GEOPREC": "ONENTITY", "PHONELOC": "YES", "QC_QA": "TGS", "STATE_ID": " " }, "geometry": { "type": "Point", "coordinates": [ -84.452293725273918, 33.606816992102964 ] } }
,
{ "type": "Feature", "properties": { "OBJECTID": 6, "ID": "10417225", "SECCLASS": "UNCLASSIFIED", "NAME": "GWINNETT MEDICAL CENTER", "TELEPHONE": "770-995-4321", "ADDRESS": "1000 MEDICAL CENTER BOULEVARD", "ADDRESS2": " ", "CITY": "LAWRENCEVILLE", "STATE": "GA", "ZIP": "30045", "ZIPP4": "7694", "COUNTY": "GWINNETT", "FIPS": "13135", "DIRECTIONS": "FROM THE INTERSECTION OF LAWRENCEVILLE SUWANNEE RD NW AND MEDICAL CENTER BLVD NW, TRAVEL NE .10 MILE THEN NW .13 MILE, TURN E .08 MILE, EN SITS ON N SIDE.", "EMERGTITLE": " ", "EMERGTEL": " ", "EMERGEXT": " ", "CONTDATE": "-1630842880", "CONTHOW": "PHONE", "GEODATE": "-1630842880", "GEOHOW": "MANUAL", "NAICSCODE": "622110", "NAICSDESCR": "HOSPITALS, GENERAL MEDICAL AND SURGICAL", "GEOLINKID": "127177197", "X": -84.0173915, "Y": 33.9635076, "ST_VENDOR": "NAVTEQ", "ST_VERSION": "2006Q4", "GEOPREC": "ONENTITY", "PHONELOC": "YES", "QC_QA": "TGS", "STATE_ID": "6917" }, "geometry": { "type": "Point", "coordinates": [ -84.017391450703371, 33.963507594821422 ] } }
,
{ "type": "Feature", "properties": { "OBJECTID": 7, "ID": "10417226", "SECCLASS": "UNCLASSIFIED", "NAME": "GLANCY REHABILITATION CENTER", "TELEPHONE": "678-584-6800", "ADDRESS": "3215 MCCLURE BRIDGE ROAD", "ADDRESS2": " ", "CITY": "DULUTH", "STATE": "GA", "ZIP": "30096", "ZIPP4": "3223", "COUNTY": "GWINNETT", "FIPS": "13135", "DIRECTIONS": "SOUTHEAST CORNER OF FACTORY RD NEW AND IRVINGDALE RD NW.", "EMERGTITLE": " ", "EMERGTEL": " ", "EMERGEXT": " ", "CONTDATE": "-1630842880", "CONTHOW": "PHONE", "GEODATE": "-1630842880", "GEOHOW": "MANUAL", "NAICSCODE": "622310", "NAICSDESCR": "REHABILITATION HOSPITALS (EXCEPT ALCOHOLISM, DRUG ADDICTION)", "GEOLINKID": "133502749", "X": -84.1528857, "Y": 34.0069626, "ST_VENDOR": "NAVTEQ", "ST_VERSION": "2006Q4", "GEOPREC": "ONENTITY", "PHONELOC": "NO", "QC_QA": "TGS", "STATE_ID": "6918" }, "geometry": { "type": "Point", "coordinates": [ -84.152885720509303, 34.006962594115009 ] } }
,
{ "type": "Feature", "properties": { "OBJECTID": 8, "ID": "10417224", "SECCLASS": "UNCLASSIFIED", "NAME": "EMORY EASTSIDE MEDICAL CENTER", "TELEPHONE": "770-979-0200", "ADDRESS": "1700 MEDICAL WAY", "ADDRESS2": " ", "CITY": "SNELLVILLE", "STATE": "GA", "ZIP": "30078", "ZIPP4": "2195", "COUNTY": "GWINNETT", "FIPS": "13135", "DIRECTIONS": "NORTH SIDE OF TREE LN SW, 0.31 MILES SOUTHEAST ON TREE LN SW FROM THE INTERSECTION AT TREE LN SW AND NEW HAMPTON DR SW.", "EMERGTITLE": " ", "EMERGTEL": " ", "EMERGEXT": " ", "CONTDATE": "-1630842880", "CONTHOW": "PHONE", "GEODATE": "-1630842880", "GEOHOW": "MANUAL", "NAICSCODE": "622110", "NAICSDESCR": "HOSPITALS, GENERAL MEDICAL AND SURGICAL", "GEOLINKID": "124543796", "X": -84.0212749, "Y": 33.8773069, "ST_VENDOR": "NAVTEQ", "ST_VERSION": "2006Q4", "GEOPREC": "ONENTITY", "PHONELOC": "YES", "QC_QA": "TGS", "STATE_ID": "6916" }, "geometry": { "type": "Point", "coordinates": [ -84.021274914159122, 33.877306862452429 ] } }
,
{ "type": "Feature", "properties": { "OBJECTID": 9, "ID": "10417070", "SECCLASS": "UNCLASSIFIED", "NAME": "PIEDMONT FAYETTE HOSPITAL", "TELEPHONE": "770-719-7000", "ADDRESS": "1255 STATE HIGHWAY 54 WEST", "ADDRESS2": " ", "CITY": "FAYETTEVILLE", "STATE": "GA", "ZIP": "30214", "ZIPP4": " ", "COUNTY": "FAYETTE", "FIPS": "13113", "DIRECTIONS": "LOC ON THE NORTH SIDE OF GA-54 W 0.35 MILES WEST OF THE INT OF SANDY CREEK RD AND GA-54 W", "EMERGTITLE": " ", "EMERGTEL": " ", "EMERGEXT": " ", "CONTDATE": "-386494464", "CONTHOW": "PHONE", "GEODATE": "-1630842880", "GEOHOW": "MANUAL", "NAICSCODE": "622110", "NAICSDESCR": "HOSPITALS, GENERAL MEDICAL AND SURGICAL", "GEOLINKID": "133516975", "X": -84.5079464, "Y": 33.4526723, "ST_VENDOR": "NAVTEQ", "ST_VERSION": "2006Q4", "GEOPREC": "ONENTITY", "PHONELOC": "YES", "QC_QA": "TGS", "STATE_ID": "6931" }, "geometry": { "type": "Point", "coordinates": [ -84.509049241927897, 33.451942627793976 ] } }
,
{ "type": "Feature", "properties": { "OBJECTID": 10, "ID": "10417073", "SECCLASS": "UNCLASSIFIED", "NAME": "DEVEREAUX CENTER", "TELEPHONE": "770-427-0147", "ADDRESS": "1291 STANLEY ROAD", "ADDRESS2": " ", "CITY": "KENNESAW", "STATE": "GA", "ZIP": "30152", "ZIPP4": "4359", "COUNTY": "COBB", "FIPS": "13067", "DIRECTIONS": "LOCATED ON THE SE SIDE OF STANLEY RD NW 0.26 MILES SW OF BARRETT KNOLL CIR NW.", "EMERGTITLE": " ", "EMERGTEL": " ", "EMERGEXT": " ", "CONTDATE": "-1509694464", "CONTHOW": "PHONE", "GEODATE": "-1630842880", "GEOHOW": "MANUAL", "NAICSCODE": "622310", "NAICSDESCR": "HOSPITALS, SPECIALTY (EXCEPT PSYCHIATRIC, SUBSTANCE ABUSE)", "GEOLINKID": "22673191", "X": -84.6113993, "Y": 33.9884782, "ST_VENDOR": "NAVTEQ", "ST_VERSION": "2006Q4", "GEOPREC": "BLOCKFACE", "PHONELOC": "YES", "QC_QA": "TGS", "STATE_ID": "6501" }, "geometry": { "type": "Point", "coordinates": [ -84.611312948754588, 33.988448283690573 ] } }
,
{ "type": "Feature", "properties": { "OBJECTID": 11, "ID": "10416834", "SECCLASS": "UNCLASSIFIED", "NAME": "SPECIALTY CARE OF MARIETTA", "TELEPHONE": "770-422-8913", "ADDRESS": "26 TOWER ROAD NORTHEAST", "ADDRESS2": " ", "CITY": "MARIETTA", "STATE": "GA", "ZIP": "30060", "ZIPP4": "6947", "COUNTY": "COBB", "FIPS": "13067", "DIRECTIONS": "LOCATED ON THE SW CORNER OF TOWER RD NE AND CHURCH ST NW", "EMERGTITLE": " ", "EMERGTEL": " ", "EMERGEXT": " ", "CONTDATE": "-1509694464", "CONTHOW": "PHONE", "GEODATE": "-1630842880", "GEOHOW": "MANUAL", "NAICSCODE": "622310", "NAICSDESCR": "HOSPITALS, SPECIALTY (EXCEPT PSYCHIATRIC, SUBSTANCE ABUSE)", "GEOLINKID": "22674126", "X": -84.5513913, "Y": 33.9693853, "ST_VENDOR": "NAVTEQ", "ST_VERSION": "2006Q4", "GEOPREC": "ONENTITY", "PHONELOC": "YES", "QC_QA": "TGS", "STATE_ID": " " }, "geometry": { "type": "Point", "coordinates": [ -84.551391311469729, 33.969385273180343 ] } }
,
{ "type": "Feature", "properties": { "OBJECTID": 12, "ID": "10417244", "SECCLASS": "UNCLASSIFIED", "NAME": "EMORY ADVENTIST HOSPITAL", "TELEPHONE": "770-434-0710", "ADDRESS": "3949 SOUTH COBB DRIVE", "ADDRESS2": " ", "CITY": "SMYRNA", "STATE": "GA", "ZIP": "30080", "ZIPP4": "6342", "COUNTY": "COBB", "FIPS": "13067", "DIRECTIONS": "LOCATED ON THE NE SIDE OF S COBB DR SE 0.20 MILES SE OF KING SPRINGS ROAD SE.", "EMERGTITLE": " ", "EMERGTEL": " ", "EMERGEXT": " ", "CONTDATE": "-1509694464", "CONTHOW": "PHONE", "GEODATE": "-1630842880", "GEOHOW": "MANUAL", "NAICSCODE": "622110", "NAICSDESCR": "HOSPITALS, GENERAL MEDICAL AND SURGICAL", "GEOLINKID": "133502870", "X": -84.5131226, "Y": 33.8577777, "ST_VENDOR": "NAVTEQ", "ST_VERSION": "2006Q4", "GEOPREC": "ONENTITY", "PHONELOC": "YES", "QC_QA": "TGS", "STATE_ID": "6942" }, "geometry": { "type": "Point", "coordinates": [ -84.51312261201187, 33.857777666223939 ] } }
,
{ "type": "Feature", "properties": { "OBJECTID": 13, "ID": "10417220", "SECCLASS": "UNCLASSIFIED", "NAME": "RIDGEVIEW INSTITUTE", "TELEPHONE": "770-434-4567", "ADDRESS": "3995 SOUTH COBB DRIVE", "ADDRESS2": " ", "CITY": "SMYRNA", "STATE": "GA", "ZIP": "30080", "ZIPP4": "6342", "COUNTY": "COBB", "FIPS": "13067", "DIRECTIONS": "LOCATED ON THE NE SIDE OF S COBB DR SE 0.31 MILES SE OF KING SPRINGS RD SE.", "EMERGTITLE": " ", "EMERGTEL": " ", "EMERGEXT": " ", "CONTDATE": "-1509694464", "CONTHOW": "PHONE", "GEODATE": "-1630842880", "GEOHOW": "MANUAL", "NAICSCODE": "622110", "NAICSDESCR": "HOSPITALS, GENERAL MEDICAL AND SURGICAL", "GEOLINKID": "23245222", "X": -84.512997, "Y": 33.8556203, "ST_VENDOR": "NAVTEQ", "ST_VERSION": "2006Q4", "GEOPREC": "BLOCKFACE", "PHONELOC": "YES", "QC_QA": "TGS", "STATE_ID": "6504" }, "geometry": { "type": "Point", "coordinates": [ -84.512996954498476, 33.855620302132337 ] } }
,
{ "type": "Feature", "properties": { "OBJECTID": 14, "ID": "10417240", "SECCLASS": "UNCLASSIFIED", "NAME": "WESLEY WOODS GERIATRIC HOSPITAL", "TELEPHONE": "404-728-6200", "ADDRESS": "1821 CLIFTON ROAD NORTHEAST", "ADDRESS2": " ", "CITY": "ATLANTA", "STATE": "GA", "ZIP": "30329", "ZIPP4": "4021", "COUNTY": "DEKALB", "FIPS": "13089", "DIRECTIONS": "NORTHEAST SIDE OF CLIFTON RD NE. 0.22 MILE SOUTHEAST OF THE GA-42 AND CLIFTON RD INTERSECTION.", "EMERGTITLE": " ", "EMERGTEL": " ", "EMERGEXT": " ", "CONTDATE": "-991294464", "CONTHOW": "PHONE", "GEODATE": "-1630842880", "GEOHOW": "MANUAL", "NAICSCODE": "622110", "NAICSDESCR": "HOSPITALS, GENERAL MEDICAL AND SURGICAL", "GEOLINKID": "22660373", "X": -84.3314002, "Y": 33.804726, "ST_VENDOR": "NAVTEQ", "ST_VERSION": "2006Q4", "GEOPREC": "ONENTITY", "PHONELOC": "YES", "QC_QA": "TGS", "STATE_ID": "6937" }, "geometry": { "type": "Point", "coordinates": [ -84.331400233374211, 33.80472601972064 ] } }
,
{ "type": "Feature", "properties": { "OBJECTID": 15, "ID": "10417065", "SECCLASS": "UNCLASSIFIED", "NAME": "SAINT JOSEPH'S HOSPITAL OF ATLANTA", "TELEPHONE": "404-851-7120", "ADDRESS": "5665 PEACHTREE DUNWOODY ROAD", "ADDRESS2": " ", "CITY": "ATLANTA", "STATE": "GA", "ZIP": "30342", "ZIPP4": "1701", "COUNTY": "FULTON", "FIPS": "13121", "DIRECTIONS": "EAST OF PEACHTREE DUNWOODY RD BETWEEN JOHNSON FERRY RD NE AND LAKE HEARN DR NE", "EMERGTITLE": " ", "EMERGTEL": " ", "EMERGEXT": " ", "CONTDATE": "-300094464", "CONTHOW": "PHONE", "GEODATE": "-1630842880", "GEOHOW": "MANUAL", "NAICSCODE": "622110", "NAICSDESCR": "HOSPITALS, GENERAL MEDICAL AND SURGICAL", "GEOLINKID": "133502876", "X": -84.3497911, "Y": 33.9084074, "ST_VENDOR": "NAVTEQ", "ST_VERSION": "2006Q4", "GEOPREC": "ONENTITY", "PHONELOC": "YES", "QC_QA": "TGS", "STATE_ID": "6924" }, "geometry": { "type": "Point", "coordinates": [ -84.349872626128743, 33.911163411908852 ] } }
,
{ "type": "Feature", "properties": { "OBJECTID": 16, "ID": "10417212", "SECCLASS": "UNCLASSIFIED", "NAME": "KINDRED HOSPITAL - ATLANTA", "TELEPHONE": "404-873-2871", "ADDRESS": "705 JUNIPER STREET NORTHEAST", "ADDRESS2": " ", "CITY": "ATLANTA", "STATE": "GA", "ZIP": "30308", "ZIPP4": "1307", "COUNTY": "FULTON", "FIPS": "13121", "DIRECTIONS": "NORTHEAST CORNER OF JUNIPER ST NE AND 3RD ST NE", "EMERGTITLE": " ", "EMERGTEL": " ", "EMERGEXT": " ", "CONTDATE": "-300094464", "CONTHOW": "PHONE", "GEODATE": "-1630842880", "GEOHOW": "MANUAL", "NAICSCODE": "622110", "NAICSDESCR": "HOSPITALS, GENERAL MEDICAL AND SURGICAL", "GEOLINKID": "22695675", "X": -84.3826417, "Y": 33.773736, "ST_VENDOR": "NAVTEQ", "ST_VERSION": "2006Q4", "GEOPREC": "ONENTITY", "PHONELOC": "YES", "QC_QA": "TGS", "STATE_ID": "6469" }, "geometry": { "type": "Point", "coordinates": [ -84.382724140221427, 33.77649203952307 ] } }
,
{ "type": "Feature", "properties": { "OBJECTID": 17, "ID": "10417227", "SECCLASS": "UNCLASSIFIED", "NAME": "EMORY CRAWFORD LONG HOSPITAL", "TELEPHONE": "404-686-4411", "ADDRESS": "550 PEACHTREE STREET NORTHEAST", "ADDRESS2": " ", "CITY": "ATLANTA", "STATE": "GA", "ZIP": "30308", "ZIPP4": "2209", "COUNTY": "FULTON", "FIPS": "13121", "DIRECTIONS": "WEST SIDE OF PEACHTREE ST NE ACROSS FROM THE PEACHTREE ST NE AND RENAISSANCE PKY NE T INTERSECTION", "EMERGTITLE": " ", "EMERGTEL": " ", "EMERGEXT": " ", "CONTDATE": "-300094464", "CONTHOW": "PHONE", "GEODATE": "-1630842880", "GEOHOW": "MANUAL", "NAICSCODE": "622110", "NAICSDESCR": "HOSPITALS, GENERAL MEDICAL AND SURGICAL", "GEOLINKID": "22696339", "X": -84.3858645, "Y": 33.7686967, "ST_VENDOR": "NAVTEQ", "ST_VERSION": "2006Q4", "GEOPREC": "ONENTITY", "PHONELOC": "YES", "QC_QA": "TGS", "STATE_ID": "6919" }, "geometry": { "type": "Point", "coordinates": [ -84.386117838238206, 33.771465026330318 ] } }
,
{ "type": "Feature", "properties": { "OBJECTID": 18, "ID": "10417062", "SECCLASS": "UNCLASSIFIED", "NAME": "CHILDREN'S HEALTH CARE OF ATLANTA AT SCOTTISH RITE", "TELEPHONE": "404-785-5252", "ADDRESS": "1001 JOHNSON FERRY ROAD", "ADDRESS2": " ", "CITY": "ATLANTA", "STATE": "GA", "ZIP": "30342", "ZIPP4": "1605", "COUNTY": "FULTON", "FIPS": "13121", "DIRECTIONS": "SOUTHEAST CORNER OF MERIDIAN MARKS RD NE AND JOHNSON FERRY RD NE", "EMERGTITLE": " ", "EMERGTEL": " ", "EMERGEXT": " ", "CONTDATE": "-300094464", "CONTHOW": "PHONE", "GEODATE": "-1630842880", "GEOHOW": "MANUAL", "NAICSCODE": "622110", "NAICSDESCR": "CHILDREN'S HOSPITALS, GENERAL", "GEOLINKID": "133507038", "X": -84.3538924, "Y": 33.906815, "ST_VENDOR": "NAVTEQ", "ST_VERSION": "2006Q4", "GEOPREC": "ONENTITY", "PHONELOC": "YES", "QC_QA": "TGS", "STATE_ID": "6923" }, "geometry": { "type": "Point", "coordinates": [ -84.353974062869796, 33.909570924127266 ] } }
,
{ "type": "Feature", "properties": { "OBJECTID": 19, "ID": "10417229", "SECCLASS": "UNCLASSIFIED", "NAME": "NORTHSIDE HOSPITAL", "TELEPHONE": "404-851-8700", "ADDRESS": "1000 JOHNSON FERRY ROAD", "ADDRESS2": " ", "CITY": "ATLANTA", "STATE": "GA", "ZIP": "30342", "ZIPP4": "1606", "COUNTY": "FULTON", "FIPS": "13121", "DIRECTIONS": "NORTHEAST CORNER OF JOHNSON FERRY RD NE AND HOLLIS COBB CIR", "EMERGTITLE": " ", "EMERGTEL": " ", "EMERGEXT": " ", "CONTDATE": "-300094464", "CONTHOW": "PHONE", "GEODATE": "-1630842880", "GEOHOW": "MANUAL", "NAICSCODE": "622110", "NAICSDESCR": "HOSPITALS, GENERAL MEDICAL AND SURGICAL", "GEOLINKID": "133507038", "X": -84.3540819, "Y": 33.9089494, "ST_VENDOR": "NAVTEQ", "ST_VERSION": "2006Q4", "GEOPREC": "ONENTITY", "PHONELOC": "YES", "QC_QA": "TGS", "STATE_ID": "6922" }, "geometry": { "type": "Point", "coordinates": [ -84.354163633811353, 33.911705321482543 ] } }
,
{ "type": "Feature", "properties": { "OBJECTID": 20, "ID": "10417215", "SECCLASS": "UNCLASSIFIED", "NAME": "INNER HARBOUR FOR CHILDREN AND FAMILIES", "TELEPHONE": "770-942-2391", "ADDRESS": "4685 DORSETT SHOALS ROAD", "ADDRESS2": " ", "CITY": "DOUGLASVILLE", "STATE": "GA", "ZIP": "30135", "ZIPP4": "4921", "COUNTY": "DOUGLAS", "FIPS": "13097", "DIRECTIONS": "LOCATED ON THE SE SIDE OF DORSETT SHOALS RD ABOUT .09 MILES NE OF COURSEY LAKE RD.", "EMERGTITLE": " ", "EMERGTEL": " ", "EMERGEXT": " ", "CONTDATE": "-818494464", "CONTHOW": "PHONE", "GEODATE": "-1630842880", "GEOHOW": "MANUAL", "NAICSCODE": "622110", "NAICSDESCR": "CHILDREN'S HOSPITALS, GENERAL", "GEOLINKID": "22820500", "X": -84.735099, "Y": 33.6809872, "ST_VENDOR": "NAVTEQ", "ST_VERSION": "2006Q4", "GEOPREC": "BLOCKFACE", "PHONELOC": "YES", "QC_QA": "TGS", "STATE_ID": "6486" }, "geometry": { "type": "Point", "coordinates": [ -84.733822899302396, 33.677796459031292 ] } }
,
{ "type": "Feature", "properties": { "OBJECTID": 21, "ID": "10416880", "SECCLASS": "UNCLASSIFIED", "NAME": "WELLSTAR COBB HOSPITAL", "TELEPHONE": "770-732-4000", "ADDRESS": "3950 AUSTELL ROAD", "ADDRESS2": " ", "CITY": "AUSTELL", "STATE": "GA", "ZIP": "30106", "ZIPP4": "1121", "COUNTY": "COBB", "FIPS": "13067", "DIRECTIONS": "LOCATED ON THE W SIDE OF AUSTELL ROAD SW 0.25 MILES N OF EAST WEST CONN SW.", "EMERGTITLE": " ", "EMERGTEL": " ", "EMERGEXT": " ", "CONTDATE": "-1509694464", "CONTHOW": "PHONE", "GEODATE": "-1630842880", "GEOHOW": "MANUAL", "NAICSCODE": "622110", "NAICSDESCR": "HOSPITALS, GENERAL MEDICAL AND SURGICAL", "GEOLINKID": "22687912", "X": -84.6047173, "Y": 33.8571614, "ST_VENDOR": "NAVTEQ", "ST_VERSION": "2006Q4", "GEOPREC": "ONENTITY", "PHONELOC": "YES", "QC_QA": "TGS", "STATE_ID": " " }, "geometry": { "type": "Point", "coordinates": [ -84.604717329602494, 33.857161424532158 ] } }
,
{ "type": "Feature", "properties": { "OBJECTID": 22, "ID": "10416882", "SECCLASS": "UNCLASSIFIED", "NAME": "WELLSTAR KENNESTONE HOSPITAL", "TELEPHONE": "770-793-5000", "ADDRESS": "677 CHURCH STREET", "ADDRESS2": " ", "CITY": "MARIETTA", "STATE": "GA", "ZIP": "30060", "ZIPP4": " ", "COUNTY": "COBB", "FIPS": "13067", "DIRECTIONS": "LOCATED AT THE NW CORNER OF WHITCHER ST NE AND CHURCH ST NW.", "EMERGTITLE": " ", "EMERGTEL": " ", "EMERGEXT": " ", "CONTDATE": "-1509694464", "CONTHOW": "PHONE", "GEODATE": "-1630842880", "GEOHOW": "MANUAL", "NAICSCODE": "622110", "NAICSDESCR": "HOSPITALS, GENERAL MEDICAL AND SURGICAL", "GEOLINKID": "133502759", "X": -84.5510603, "Y": 33.968091, "ST_VENDOR": "NAVTEQ", "ST_VERSION": "2006Q4", "GEOPREC": "ONENTITY", "PHONELOC": "YES", "QC_QA": "TGS", "STATE_ID": " " }, "geometry": { "type": "Point", "coordinates": [ -84.551060287711422, 33.968090965074005 ] } }
,
{ "type": "Feature", "properties": { "OBJECTID": 23, "ID": "10416884", "SECCLASS": "UNCLASSIFIED", "NAME": "WELLSTAR WINDY HILL HOSPITAL", "TELEPHONE": "770-644-1000", "ADDRESS": "2540 WINDY HILL ROAD", "ADDRESS2": " ", "CITY": "MARIETTA", "STATE": "GA", "ZIP": "30067", "ZIPP4": "8605", "COUNTY": "COBB", "FIPS": "13067", "DIRECTIONS": "LOCATED ON THE S SIDE OF WINDY HILL ROAD SE 0.04 MILES W OF S PARK PL SE.", "EMERGTITLE": " ", "EMERGTEL": " ", "EMERGEXT": " ", "CONTDATE": "-1509694464", "CONTHOW": "PHONE", "GEODATE": "-1630842880", "GEOHOW": "MANUAL", "NAICSCODE": "622110", "NAICSDESCR": "HOSPITALS, GENERAL MEDICAL AND SURGICAL", "GEOLINKID": "123794095", "X": -84.4794108, "Y": 33.9010811, "ST_VENDOR": "NAVTEQ", "ST_VERSION": "2006Q4", "GEOPREC": "BLOCKFACE", "PHONELOC": "YES", "QC_QA": "TGS", "STATE_ID": " " }, "geometry": { "type": "Point", "coordinates": [ -84.479410815277049, 33.901081082473596 ] } }
,
{ "type": "Feature", "properties": { "OBJECTID": 24, "ID": "10416862", "SECCLASS": "UNCLASSIFIED", "NAME": "LAUREL HEIGHTS HOSPITAL", "TELEPHONE": "404-888-7860", "ADDRESS": "934 BRIARCLIFF ROAD NORTHEAST", "ADDRESS2": " ", "CITY": "ATLANTA", "STATE": "GA", "ZIP": "30306", "ZIPP4": "2618", "COUNTY": "DEKALB", "FIPS": "13089", "DIRECTIONS": "NORTHWEST SIDE OF BRIARCLIFF RD NE. BETWEEN VIRGINIA AVE NE AND STILLWOOD DR NE.", "EMERGTITLE": " ", "EMERGTEL": " ", "EMERGEXT": " ", "CONTDATE": "-991294464", "CONTHOW": "PHONE", "GEODATE": "-1630842880", "GEOHOW": "MANUAL", "NAICSCODE": "622110", "NAICSDESCR": "HOSPITALS, GENERAL MEDICAL AND SURGICAL", "GEOLINKID": "17037321", "X": -84.3450755, "Y": 33.7799109, "ST_VENDOR": "NAVTEQ", "ST_VERSION": "2006Q4", "GEOPREC": "BLOCKFACE", "PHONELOC": "YES", "QC_QA": "TGS", "STATE_ID": " " }, "geometry": { "type": "Point", "coordinates": [ -84.345293342513841, 33.780087981218799 ] } }
,
{ "type": "Feature", "properties": { "OBJECTID": 25, "ID": "10416868", "SECCLASS": "UNCLASSIFIED", "NAME": "PEACHFORD BEHAVIORAL HEALTH SYSTEM OF ATLANTA", "TELEPHONE": "770-455-3200", "ADDRESS": "2151 PEACHFORD ROAD NORTHEAST", "ADDRESS2": " ", "CITY": "ATLANTA", "STATE": "GA", "ZIP": "30338", "ZIPP4": "6534", "COUNTY": "DEKALB", "FIPS": "13089", "DIRECTIONS": "NORTHWEST SIDE OF PEACHFORD RD. BETWEEN PINERIDGE CIR AND BARCLAY DR.", "EMERGTITLE": " ", "EMERGTEL": " ", "EMERGEXT": " ", "CONTDATE": "-991294464", "CONTHOW": "PHONE", "GEODATE": "-1630842880", "GEOHOW": "MANUAL", "NAICSCODE": "622210", "NAICSDESCR": "HOSPITALS, MENTAL (EXCEPT MENTAL RETARDATION)", "GEOLINKID": "22726009", "X": -84.2983537, "Y": 33.9275332, "ST_VENDOR": "NAVTEQ", "ST_VERSION": "2006Q4", "GEOPREC": "BLOCKFACE", "PHONELOC": "YES", "QC_QA": "TGS", "STATE_ID": " " }, "geometry": { "type": "Point", "coordinates": [ -84.298521073878234, 33.927518666327771 ] } }
,
{ "type": "Feature", "properties": { "OBJECTID": 26, "ID": "10416838", "SECCLASS": "UNCLASSIFIED", "NAME": "ATLANTA MEDICAL CENTER", "TELEPHONE": "404-265-4000", "ADDRESS": "303 PARKWAY DRIVE NORTHEAST", "ADDRESS2": " ", "CITY": "ATLANTA", "STATE": "GA", "ZIP": "30312", "ZIPP4": "1212", "COUNTY": "FULTON", "FIPS": "13121", "DIRECTIONS": "EAST OF PARKWAY DR BETWEEN RALPH MCGILL BLVD NE AND HIGHLAND AVE NE", "EMERGTITLE": " ", "EMERGTEL": " ", "EMERGEXT": " ", "CONTDATE": "-300094464", "CONTHOW": "PHONE", "GEODATE": "-1630842880", "GEOHOW": "MANUAL", "NAICSCODE": "622110", "NAICSDESCR": "HOSPITALS, GENERAL MEDICAL AND SURGICAL", "GEOLINKID": "133502721", "X": -84.3730085, "Y": 33.7625881, "ST_VENDOR": "NAVTEQ", "ST_VERSION": "2006Q4", "GEOPREC": "ONENTITY", "PHONELOC": "YES", "QC_QA": "TGS", "STATE_ID": " " }, "geometry": { "type": "Point", "coordinates": [ -84.373090652169282, 33.765344131187867 ] } }
,
{ "type": "Feature", "properties": { "OBJECTID": 27, "ID": "10417239", "SECCLASS": "UNCLASSIFIED", "NAME": "EMORY UNIVERSITY HOSPITAL", "TELEPHONE": "404-712-2000", "ADDRESS": "1364 CLIFTON ROAD NORTHEAST", "ADDRESS2": " ", "CITY": "ATLANTA", "STATE": "GA", "ZIP": "30322", "ZIPP4": "1061", "COUNTY": "DEKALB", "FIPS": "13089", "DIRECTIONS": "LOCATED ON THE W SIDE OF CLIFTON ROAD NE 0.02 MILES N OF LOWERGATE DR NE.", "EMERGTITLE": " ", "EMERGTEL": " ", "EMERGEXT": " ", "CONTDATE": "-991294464", "CONTHOW": "PHONE", "GEODATE": "-1458042880", "GEOHOW": "MANUAL", "NAICSCODE": "622110", "NAICSDESCR": "HOSPITALS, GENERAL MEDICAL AND SURGICAL", "GEOLINKID": "17037586", "X": -84.3221394, "Y": 33.7921647, "ST_VENDOR": "NAVTEQ", "ST_VERSION": "2006Q4", "GEOPREC": "ONENTITY", "PHONELOC": "YES", "QC_QA": "TGS", "STATE_ID": "6936" }, "geometry": { "type": "Point", "coordinates": [ -84.322139445373267, 33.792164731048402 ] } }
,
{ "type": "Feature", "properties": { "OBJECTID": 28, "ID": "10417054", "SECCLASS": "UNCLASSIFIED", "NAME": "CHILDREN'S HEALTHCARE OF ATLANTA AT EGLESTON", "TELEPHONE": "404-785-6000", "ADDRESS": "1405 CLIFTON ROAD NORTHEAST", "ADDRESS2": " ", "CITY": "ATLANTA", "STATE": "GA", "ZIP": "30322", "ZIPP4": "1062", "COUNTY": "DEKALB", "FIPS": "13089", "DIRECTIONS": "LOCATED ON THE E SIDE OF CLIFTON ROAD NE BETWEEN HAYGOOD DR NE AND WOODRUFF CIR N.", "EMERGTITLE": " ", "EMERGTEL": " ", "EMERGEXT": " ", "CONTDATE": "-991294464", "CONTHOW": "PHONE", "GEODATE": "-1458042880", "GEOHOW": "MANUAL", "NAICSCODE": "622110", "NAICSDESCR": "CHILDREN'S HOSPITALS, GENERAL", "GEOLINKID": "118805824", "X": -84.3206401, "Y": 33.7938445, "ST_VENDOR": "NAVTEQ", "ST_VERSION": "2006Q4", "GEOPREC": "BLOCKFACE", "PHONELOC": "YES", "QC_QA": "TGS", "STATE_ID": "6940" }, "geometry": { "type": "Point", "coordinates": [ -84.32032944914009, 33.794110294317981 ] } }
,
{ "type": "Feature", "properties": { "OBJECTID": 29, "ID": "10417069", "SECCLASS": "UNCLASSIFIED", "NAME": "PIEDMONT HOSPITAL", "TELEPHONE": "404-605-5000", "ADDRESS": "1968 PEACHTREE ROAD NORTHWEST", "ADDRESS2": " ", "CITY": "ATLANTA", "STATE": "GA", "ZIP": "30309", "ZIPP4": "1281", "COUNTY": "FULTON", "FIPS": "13121", "DIRECTIONS": "LOCATED AT THE NORTH CORNER OF COLLIER ROAD NW AND PEACHTREE RD NW.", "EMERGTITLE": " ", "EMERGTEL": " ", "EMERGEXT": " ", "CONTDATE": "-300094464", "CONTHOW": "PHONE", "GEODATE": "-1458042880", "GEOHOW": "MANUAL", "NAICSCODE": "622110", "NAICSDESCR": "HOSPITALS, GENERAL MEDICAL AND SURGICAL", "GEOLINKID": "127087717", "X": -84.3948356, "Y": 33.808562, "ST_VENDOR": "NAVTEQ", "ST_VERSION": "2006Q4", "GEOPREC": "ONENTITY", "PHONELOC": "YES", "QC_QA": "TGS", "STATE_ID": "6920" }, "geometry": { "type": "Point", "coordinates": [ -84.394918452672641, 33.811317962554782 ] } }
,
{ "type": "Feature", "properties": { "OBJECTID": 30, "ID": "10417223", "SECCLASS": "UNCLASSIFIED", "NAME": "ROCKDALE MEDICAL CENTER", "TELEPHONE": "770-918-3101", "ADDRESS": "1412 MILSTEAD AVENUE", "ADDRESS2": " ", "CITY": "CONYERS", "STATE": "GA", "ZIP": "30012", "ZIPP4": "3877", "COUNTY": "ROCKDALE", "FIPS": "13247", "DIRECTIONS": "NW CORNER OF MILSTEAD RD NE AND STARCREST DR NE", "EMERGTITLE": " ", "EMERGTEL": " ", "EMERGEXT": " ", "CONTDATE": "-1630842880", "CONTHOW": "PHONE", "GEODATE": "-1630842880", "GEOHOW": "MANUAL", "NAICSCODE": "622110", "NAICSDESCR": "HOSPITALS, GENERAL MEDICAL AND SURGICAL", "GEOLINKID": "22732588", "X": -84.0014827, "Y": 33.6807265, "ST_VENDOR": "NAVTEQ", "ST_VERSION": "2006Q4", "GEOPREC": "ONENTITY", "PHONELOC": "YES", "QC_QA": "TGS", "STATE_ID": "6642" }, "geometry": { "type": "Point", "coordinates": [ -84.001053051276301, 33.681473037490292 ] } }
,
{ "type": "Feature", "properties": { "OBJECTID": 31, "ID": "10417213", "SECCLASS": "UNCLASSIFIED", "NAME": "SHEPHERD CENTER", "TELEPHONE": "404-352-2020", "ADDRESS": "2020 PEACHTREE ROAD NORTHWEST", "ADDRESS2": " ", "CITY": "ATLANTA", "STATE": "GA", "ZIP": "30309", "ZIPP4": "1426", "COUNTY": "FULTON", "FIPS": "13121", "DIRECTIONS": "LOCATED ON THE W SIDE OF PEACHTREE RD NW BETWEEN PEACHTREE VALLY RD NW AND BROOKWOOD VALLEY CIR NE.", "EMERGTITLE": " ", "EMERGTEL": " ", "EMERGEXT": " ", "CONTDATE": "-300094464", "CONTHOW": "PHONE", "GEODATE": "-1458042880", "GEOHOW": "MANUAL", "NAICSCODE": "622310", "NAICSDESCR": "REHABILITATION HOSPITALS (EXCEPT ALCOHOLISM, DRUG ADDICTION)", "GEOLINKID": "22691933", "X": -84.3943903, "Y": 33.8101812, "ST_VENDOR": "NAVTEQ", "ST_VERSION": "2006Q4", "GEOPREC": "ONENTITY", "PHONELOC": "YES", "QC_QA": "TGS", "STATE_ID": "6473" }, "geometry": { "type": "Point", "coordinates": [ -84.394473150656836, 33.812937161431847 ] } }
,
{ "type": "Feature", "properties": { "OBJECTID": 32, "ID": "10417209", "SECCLASS": "UNCLASSIFIED", "NAME": "HENRY MEDICAL CENTER", "TELEPHONE": "678-604-1000", "ADDRESS": "1133 EAGLES LANDING PARKWAY", "ADDRESS2": " ", "CITY": "STOCKBRIDGE", "STATE": "GA", "ZIP": "30281", "ZIPP4": "5085", "COUNTY": "HENRY", "FIPS": "13151", "DIRECTIONS": "LOCATED ON THE NW SIDE OF EAGLES LANDING PKY BETWEEN EAGLE SPRING DR AND HOSPITAL DR", "EMERGTITLE": " ", "EMERGTEL": " ", "EMERGEXT": " ", "CONTDATE": "-1630842880", "CONTHOW": "PHONE", "GEODATE": "-1112442880", "GEOHOW": "MANUAL", "NAICSCODE": "622110", "NAICSDESCR": "HOSPITALS, GENERAL MEDICAL AND SURGICAL", "GEOLINKID": "127198850", "X": -84.2274244, "Y": 33.5109178, "ST_VENDOR": "NAVTEQ", "ST_VERSION": "2006Q4", "GEOPREC": "ONENTITY", "PHONELOC": "YES", "QC_QA": "TGS", "STATE_ID": "6463" }, "geometry": { "type": "Point", "coordinates": [ -84.22513867735708, 33.501466067293791 ] } }
,
{ "type": "Feature", "properties": { "OBJECTID": 33, "ID": "10417063", "SECCLASS": "UNCLASSIFIED", "NAME": "CHILDREN'S HEALTHCARE OF ATLANTA AT HUGHES SPALDING", "TELEPHONE": "404-785-9500", "ADDRESS": "35 JESSE HILL JUNIOR DRIVE SOUTHEAST", "ADDRESS2": " ", "CITY": "ATLANTA", "STATE": "GA", "ZIP": "30303", "ZIPP4": "3032", "COUNTY": "FULTON", "FIPS": "13121", "DIRECTIONS": "WEST CORNER OF JESSE HILL JR DR SE AND COCA COLA PL SE", "EMERGTITLE": " ", "EMERGTEL": " ", "EMERGEXT": " ", "CONTDATE": "-300094464", "CONTHOW": "PHONE", "GEODATE": "-1112442880", "GEOHOW": "MANUAL", "NAICSCODE": "622110", "NAICSDESCR": "CHILDREN'S HOSPITALS, GENERAL", "GEOLINKID": "22698831", "X": -84.3817334, "Y": 33.7536232, "ST_VENDOR": "NAVTEQ", "ST_VERSION": "2006Q4", "GEOPREC": "ONENTITY", "PHONELOC": "YES", "QC_QA": "TGS", "STATE_ID": "6928" }, "geometry": { "type": "Point", "coordinates": [ -84.381815857892605, 33.756379252329779 ] } }
,
{ "type": "Feature", "properties": { "OBJECTID": 34, "ID": "10417214", "SECCLASS": "UNCLASSIFIED", "NAME": "COLUMBIA METROPOLITAN HOSPITAL", "TELEPHONE": "404-351-0500", "ADDRESS": "3200 DOWNWOOD CIRCLE NORTHWEST", "ADDRESS2": " ", "CITY": "ATLANTA", "STATE": "GA", "ZIP": "30327", "ZIPP4": "1610", "COUNTY": "FULTON", "FIPS": "13121", "DIRECTIONS": "LOCATED ON THE NW SIDE OF DOWNWOOD CIR NW, 0.05 MILES NE OF HOWELL MILL RD NW", "EMERGTITLE": " ", "EMERGTEL": " ", "EMERGEXT": " ", "CONTDATE": "-300094464", "CONTHOW": "PHONE", "GEODATE": "-1458042880", "GEOHOW": "MANUAL", "NAICSCODE": "622110", "NAICSDESCR": "HOSPITALS, GENERAL MEDICAL AND SURGICAL", "GEOLINKID": "22689242", "X": -84.4264077, "Y": 33.8415846, "ST_VENDOR": "NAVTEQ", "ST_VERSION": "2006Q4", "GEOPREC": "BLOCKFACE", "PHONELOC": "YES", "QC_QA": "TGS", "STATE_ID": "6479" }, "geometry": { "type": "Point", "coordinates": [ -84.426491699511061, 33.84434055218582 ] } }
,
{ "type": "Feature", "properties": { "OBJECTID": 35, "ID": "10417233", "SECCLASS": "UNCLASSIFIED", "NAME": "GRADY MEMORIAL HOSPITAL", "TELEPHONE": "404-616-1000", "ADDRESS": "80 JESSE HILL JUNIOR DRIVE SOUTHEAST", "ADDRESS2": " ", "CITY": "ATLANTA", "STATE": "GA", "ZIP": "30303", "ZIPP4": "3031", "COUNTY": "FULTON", "FIPS": "13121", "DIRECTIONS": "SOUTH CORNER OF BUTLER ST SE AND ARMSTRONG ST SE", "EMERGTITLE": " ", "EMERGTEL": " ", "EMERGEXT": " ", "CONTDATE": "-300094464", "CONTHOW": "PHONE", "GEODATE": "-1112442880", "GEOHOW": "MANUAL", "NAICSCODE": "622110", "NAICSDESCR": "HOSPITALS, GENERAL MEDICAL AND SURGICAL", "GEOLINKID": "22699041", "X": -84.3819522, "Y": 33.7525595, "ST_VENDOR": "NAVTEQ", "ST_VERSION": "2006Q4", "GEOPREC": "ONENTITY", "PHONELOC": "YES", "QC_QA": "TGS", "STATE_ID": "6929" }, "geometry": { "type": "Point", "coordinates": [ -84.382052640863506, 33.754604094216567 ] } }
,
{ "type": "Feature", "properties": { "OBJECTID": 36, "ID": "10417210", "SECCLASS": "UNCLASSIFIED", "NAME": "SUMMITRIDGE PSYCHIATRIC HOSPITAL", "TELEPHONE": "770-822-2200", "ADDRESS": "250 SCENIC HIGHWAY", "ADDRESS2": " ", "CITY": "LAWRENCEVILLE", "STATE": "GA", "ZIP": "30045", "ZIPP4": "5675", "COUNTY": "GWINNETT", "FIPS": "13135", "DIRECTIONS": "SOUTHEAST SIDE OF SCENIC HWY BETWEEN GWINNETT DR SW AND CONSTITUTION BLVD SW.", "EMERGTITLE": " ", "EMERGTEL": " ", "EMERGEXT": " ", "CONTDATE": "-1630842880", "CONTHOW": "PHONE", "GEODATE": "-1630842880", "GEOHOW": "MANUAL", "NAICSCODE": "622210", "NAICSDESCR": "HOSPITALS, PSYCHIATRIC (EXCEPT CONVALESCENT)", "GEOLINKID": "22803242", "X": -83.989642, "Y": 33.942378, "ST_VENDOR": "NAVTEQ", "ST_VERSION": "2006Q4", "GEOPREC": "ONENTITY", "PHONELOC": "YES", "QC_QA": "TGS", "STATE_ID": "6464" }, "geometry": { "type": "Point", "coordinates": [ -83.98964200082554, 33.942377972222424 ] } }
,
{ "type": "Feature", "properties": { "OBJECTID": 37, "ID": "10416881", "SECCLASS": "UNCLASSIFIED", "NAME": "WELLSTAR DOUGLAS HOSPITAL", "TELEPHONE": "770-949-1500", "ADDRESS": "8954 HOSPITAL DRIVE", "ADDRESS2": " ", "CITY": "DOUGLASVILLE", "STATE": "GA", "ZIP": "30134", "ZIPP4": "2272", "COUNTY": "DOUGLAS", "FIPS": "13097", "DIRECTIONS": "LOCATED ON THE E SIDE OF HOSPITAL DR BETWEEN PRESTLEY MILL RD AND PROFESSIONAL PKY.", "EMERGTITLE": " ", "EMERGTEL": " ", "EMERGEXT": " ", "CONTDATE": "-818494464", "CONTHOW": "PHONE", "GEODATE": "-1630842880", "GEOHOW": "MANUAL", "NAICSCODE": "622110", "NAICSDESCR": "HOSPITALS, GENERAL MEDICAL AND SURGICAL", "GEOLINKID": "133502852", "X": -84.7315707, "Y": 33.7390697, "ST_VENDOR": "NAVTEQ", "ST_VERSION": "2006Q4", "GEOPREC": "ONENTITY", "PHONELOC": "YES", "QC_QA": "TGS", "STATE_ID": " " }, "geometry": { "type": "Point", "coordinates": [ -84.731647375463638, 33.738868802268072 ] } }
,
{ "type": "Feature", "properties": { "OBJECTID": 38, "ID": "10416888", "SECCLASS": "UNCLASSIFIED", "NAME": "WOMEN'S LIFE CENTER", "TELEPHONE": "770-991-8200", "ADDRESS": "11 SOUTHWEST UPPER RIVERDALE ROAD", "ADDRESS2": " ", "CITY": "RIVERDALE", "STATE": "GA", "ZIP": "30274", "ZIPP4": "2615", "COUNTY": "CLAYTON", "FIPS": "13063", "DIRECTIONS": "LOCATED IN THE N SIDE OF SW UPPER RIVERDALE RD 0.10 MILES N OF UPPER RIVERDALE RD SW.", "EMERGTITLE": " ", "EMERGTEL": " ", "EMERGEXT": " ", "CONTDATE": "2094072832", "CONTHOW": "PHONE", "GEODATE": "-162042880", "GEOHOW": "MANUAL", "NAICSCODE": "622110", "NAICSDESCR": "HOSPITALS, GENERAL MEDICAL AND SURGICAL", "GEOLINKID": "22736008", "X": -84.3896655, "Y": 33.5791868, "ST_VENDOR": "NAVTEQ", "ST_VERSION": "2006Q4", "GEOPREC": "ONENTITY", "PHONELOC": "YES", "QC_QA": "TGS", "STATE_ID": " " }, "geometry": { "type": "Point", "coordinates": [ -84.389201121048117, 33.579731552409513 ] } }
,
{ "type": "Feature", "properties": { "OBJECTID": 39, "ID": "10417246", "SECCLASS": "UNCLASSIFIED", "NAME": "SOUTHERN REGIONAL MEDICAL CENTER", "TELEPHONE": "770-991-8000", "ADDRESS": "11 SOUTHWEST UPPER RIVERDALE ROAD", "ADDRESS2": " ", "CITY": "RIVERDALE", "STATE": "GA", "ZIP": "30274", "ZIPP4": "2615", "COUNTY": "CLAYTON", "FIPS": "13063", "DIRECTIONS": "LOCATED ON THE N SIDE OF SW UPPER RIVERDALE RD 0.10 MILES N OF UPPER RIVERDALE RD SW.", "EMERGTITLE": " ", "EMERGTEL": " ", "EMERGEXT": " ", "CONTDATE": "2094072832", "CONTHOW": "PHONE", "GEODATE": "-1630842880", "GEOHOW": "MANUAL", "NAICSCODE": "622110", "NAICSDESCR": "HOSPITALS, GENERAL MEDICAL AND SURGICAL", "GEOLINKID": "22736008", "X": -84.3896619, "Y": 33.5791855, "ST_VENDOR": "NAVTEQ", "ST_VERSION": "2006Q4", "GEOPREC": "ONENTITY", "PHONELOC": "YES", "QC_QA": "TGS", "STATE_ID": "6945" }, "geometry": { "type": "Point", "coordinates": [ -84.389661935793015, 33.579185467858927 ] } }
,
{ "type": "Feature", "properties": { "OBJECTID": 40, "ID": "10417242", "SECCLASS": "UNCLASSIFIED", "NAME": "DEKALB MEDICAL CENTER", "TELEPHONE": "404-501-1000", "ADDRESS": "2701 N. DECATUR ROAD", "ADDRESS2": " ", "CITY": "DECATUR", "STATE": "GA", "ZIP": "30033", "ZIPP4": "5918", "COUNTY": "DEKALB", "FIPS": "13089", "DIRECTIONS": " ", "EMERGTITLE": " ", "EMERGTEL": " ", "EMERGEXT": " ", "CONTDATE": "-991294464", "CONTHOW": "PHONE", "GEODATE": "-1630842880", "GEOHOW": "PROVIDED", "NAICSCODE": "622110", "NAICSDESCR": "HOSPITALS, GENERAL MEDICAL AND SURGICAL", "GEOLINKID": " ", "X": -84.282799, "Y": 33.790028, "ST_VENDOR": "NAVTEQ", "ST_VERSION": "2006Q4", "GEOPREC": "ONENTITY", "PHONELOC": "YES", "QC_QA": "TGS", "STATE_ID": "6939" }, "geometry": { "type": "Point", "coordinates": [ -84.281591203125814, 33.790248663070123 ] } }
,
{ "type": "Feature", "properties": { "OBJECTID": 41, "ID": "10417238", "SECCLASS": "UNCLASSIFIED", "NAME": "VETERANS HOSPITAL", "TELEPHONE": "404-321-6111", "ADDRESS": "1670 CLAIRMONT RD", "ADDRESS2": " ", "CITY": "DECATUR", "STATE": "GA", "ZIP": "30033", "ZIPP4": "4004", "COUNTY": "DEKALB", "FIPS": "13089", "DIRECTIONS": " ", "EMERGTITLE": " ", "EMERGTEL": " ", "EMERGEXT": " ", "CONTDATE": "-991294464", "CONTHOW": "PHONE", "GEODATE": "-1630842880", "GEOHOW": "PROVIDED", "NAICSCODE": "622110", "NAICSDESCR": "HOSPITALS, GENERAL MEDICAL AND SURGICAL", "GEOLINKID": " ", "X": -84.310982, "Y": 33.803143, "ST_VENDOR": "NAVTEQ", "ST_VERSION": "2006Q4", "GEOPREC": "ONENTITY", "PHONELOC": "YES", "QC_QA": "TGS", "STATE_ID": "6935" }, "geometry": { "type": "Point", "coordinates": [ -84.311711947829039, 33.801586504021607 ] } }
,
{ "type": "Feature", "properties": { "OBJECTID": 42, "ID": "10417234", "SECCLASS": "UNCLASSIFIED", "NAME": "SOUTH FULTON MEDICAL CENTER, INC.", "TELEPHONE": "404-305-3550", "ADDRESS": "1170 CLEVELAND AVENUE", "ADDRESS2": " ", "CITY": "EAST POINT", "STATE": "GA", "ZIP": "30344", "ZIPP4": "3615", "COUNTY": "FULTON", "FIPS": "13121", "DIRECTIONS": " ", "EMERGTITLE": " ", "EMERGTEL": " ", "EMERGEXT": " ", "CONTDATE": "-300094464", "CONTHOW": "PHONE", "GEODATE": "-1112442880", "GEOHOW": "PROVIDED", "NAICSCODE": "622110", "NAICSDESCR": "HOSPITALS, GENERAL MEDICAL AND SURGICAL", "GEOLINKID": " ", "X": -84.427605, "Y": 33.680614, "ST_VENDOR": "NAVTEQ", "ST_VERSION": "2006Q4", "GEOPREC": "ONENTITY", "PHONELOC": "YES", "QC_QA": "TGS", "STATE_ID": "6930" }, "geometry": { "type": "Point", "coordinates": [ -84.427058438489155, 33.683195824168486 ] } }
,
{ "type": "Feature", "properties": { "OBJECTID": 43, "ID": "10417228", "SECCLASS": "UNCLASSIFIED", "NAME": "NORTH FULTON REGIONAL HOSPITAL", "TELEPHONE": "404-751-2512", "ADDRESS": "3000 HOSPITAL BOULEVARD", "ADDRESS2": " ", "CITY": "ROSWELL", "STATE": "GA", "ZIP": "30076", "ZIPP4": "4915", "COUNTY": "FULTON", "FIPS": "13121", "DIRECTIONS": " ", "EMERGTITLE": " ", "EMERGTEL": " ", "EMERGEXT": " ", "CONTDATE": "-300094464", "CONTHOW": "PHONE", "GEODATE": "-1112442880", "GEOHOW": "PROVIDED", "NAICSCODE": "622110", "NAICSDESCR": "HOSPITALS, GENERAL MEDICAL AND SURGICAL", "GEOLINKID": " ", "X": -84.320808, "Y": 34.062942, "ST_VENDOR": "NAVTEQ", "ST_VERSION": "2006Q4", "GEOPREC": "ONENTITY", "PHONELOC": "YES", "QC_QA": "TGS", "STATE_ID": "6921" }, "geometry": { "type": "Point", "coordinates": [ -84.320266272049466, 34.065752039950361 ] } }
,
{ "type": "Feature", "properties": { "OBJECTID": 44, "ID": "10417218", "SECCLASS": "UNCLASSIFIED", "NAME": "DECATUR HOSPITAL", "TELEPHONE": "404-377-0221", "ADDRESS": "450 NORTH CANDLER STREET", "ADDRESS2": " ", "CITY": "DECATUR", "STATE": "GA", "ZIP": "30030", "ZIPP4": "2626", "COUNTY": "DEKALB", "FIPS": "13089", "DIRECTIONS": " ", "EMERGTITLE": " ", "EMERGTEL": " ", "EMERGEXT": " ", "CONTDATE": "-991294464", "CONTHOW": "PHONE", "GEODATE": "-1630842880", "GEOHOW": "PROVIDED", "NAICSCODE": "622110", "NAICSDESCR": "HOSPITALS, GENERAL MEDICAL AND SURGICAL", "GEOLINKID": " ", "X": -84.292824, "Y": 33.777081, "ST_VENDOR": "NAVTEQ", "ST_VERSION": "2006Q4", "GEOPREC": "ONENTITY", "PHONELOC": "YES", "QC_QA": "TGS", "STATE_ID": "6497" }, "geometry": { "type": "Point", "coordinates": [ -84.29295300110455, 33.777446873182171 ] } }
,
{ "type": "Feature", "properties": { "OBJECTID": 45, "ID": "10417217", "SECCLASS": "UNCLASSIFIED", "NAME": "GEORGIA REGIONAL HOSPITAL \/ ATLANTA", "TELEPHONE": "404-243-2100", "ADDRESS": "3073 PANTHERSVILLE ROAD", "ADDRESS2": " ", "CITY": "DECATUR", "STATE": "GA", "ZIP": "30034", "ZIPP4": "3828", "COUNTY": "DEKALB", "FIPS": "13089", "DIRECTIONS": " ", "EMERGTITLE": " ", "EMERGTEL": " ", "EMERGEXT": " ", "CONTDATE": "-991294464", "CONTHOW": "PHONE", "GEODATE": "-1630842880", "GEOHOW": "PROVIDED", "NAICSCODE": "622110", "NAICSDESCR": "HOSPITALS, GENERAL MEDICAL AND SURGICAL", "GEOLINKID": " ", "X": -84.272163, "Y": 33.694275, "ST_VENDOR": "NAVTEQ", "ST_VERSION": "2006Q4", "GEOPREC": "ONENTITY", "PHONELOC": "YES", "QC_QA": "TGS", "STATE_ID": "6491" }, "geometry": { "type": "Point", "coordinates": [ -84.274021586400494, 33.694632504534034 ] } }

]
}